{
  "features": [
    {
      "type": "Feature",
      "properties": {
        "Postcard ID": "US-4437085",
        "City": "Saint-Brieuc",
        "Country": "France",
        "Sent/Received": "Sent",
        "Type": 2,
        "Days Traveled": 13,
        "Month": "January",
        "Year": 2017,
        "Miles": 4909
      },
      "geometry": {
        "coordinates": [
          -2.766842,
          48.492481
        ],
        "type": "Point"
      },
      "id": "00a7f32ad020154d299af140dbea1388"
    },
    {
      "type": "Feature",
      "properties": {
        "Postcard ID": "TW-2359336",
        "City": "Tainan",
        "Country": "Taiwan",
        "Sent/Received": "Received",
        "Type": 1,
        "Days Traveled": 20,
        "Month": "October",
        "Year": 2017,
        "Miles": 6908
      },
      "geometry": {
        "coordinates": [
          120.224183,
          22.994357
        ],
        "type": "Point"
      },
      "id": "00cb4b218fd8ef850b2ee8fc029207b9"
    },
    {
      "type": "Feature",
      "properties": {
        "Postcard ID": "US-4094774",
        "City": "Yokohama",
        "Country": "Japan",
        "Sent/Received": "Sent",
        "Type": 2,
        "Days Traveled": 9,
        "Month": "July",
        "Year": 2016,
        "Miles": 5489
      },
      "geometry": {
        "coordinates": [
          139.594088,
          35.379788
        ],
        "type": "Point"
      },
      "id": "0183427f26d1b8596512c56ea4ff319b"
    },
    {
      "type": "Feature",
      "properties": {
        "Postcard ID": "US-4563521",
        "City": "Bohumin",
        "Country": "Czechia",
        "Sent/Received": "Sent",
        "Type": 2,
        "Days Traveled": 8,
        "Month": "March",
        "Year": 2017,
        "Miles": 5484
      },
      "geometry": {
        "coordinates": [
          18.358891,
          49.903721
        ],
        "type": "Point"
      },
      "id": "02a70f00895db02eed677400ee1bd0c2"
    },
    {
      "type": "Feature",
      "properties": {
        "Postcard ID": "US-4764410",
        "City": "Zurich",
        "Country": "Switzerland",
        "Sent/Received": "Sent",
        "Type": 2,
        "Days Traveled": 12,
        "Month": "July",
        "Year": 2017,
        "Miles": 5336
      },
      "geometry": {
        "coordinates": [
          8.5856,
          47.426314
        ],
        "type": "Point"
      },
      "id": "031499b820f0e00dc89c71259c402f2e"
    },
    {
      "type": "Feature",
      "properties": {
        "Postcard ID": "RU-5618169",
        "City": "Salekard",
        "Country": "Russia",
        "Sent/Received": "Received",
        "Type": 1,
        "Days Traveled": 16,
        "Month": "May",
        "Year": 2017,
        "Miles": 5023
      },
      "geometry": {
        "coordinates": [
          66.630082,
          66.549515
        ],
        "type": "Point"
      },
      "id": "033b202d98b42056041024a7f3f7d155"
    },
    {
      "type": "Feature",
      "properties": {
        "Postcard ID": "US-4662715",
        "City": "Minsk",
        "Country": "Belarus",
        "Sent/Received": "Sent",
        "Type": 2,
        "Days Traveled": 25,
        "Month": "June",
        "Year": 2017,
        "Miles": 5468
      },
      "geometry": {
        "coordinates": [
          27.495285,
          53.889579
        ],
        "type": "Point"
      },
      "id": "0361b958b0e90c55e0e6931b13e6988d"
    },
    {
      "type": "Feature",
      "properties": {
        "Postcard ID": "US-4834647",
        "City": "Doetinchem",
        "Country": "Netherlands",
        "Sent/Received": "Sent",
        "Type": 2,
        "Days Traveled": 9,
        "Month": "August",
        "Year": 2017,
        "Miles": 5037
      },
      "geometry": {
        "coordinates": [
          6.299599,
          51.961561
        ],
        "type": "Point"
      },
      "id": "039d0746de0a0acdc1102c29f49ae030"
    },
    {
      "type": "Feature",
      "properties": {
        "Postcard ID": "US-4852963",
        "City": "Jakarta",
        "Country": "Indonesia",
        "Sent/Received": "Sent",
        "Type": 2,
        "Days Traveled": 19,
        "Month": "September",
        "Year": 2017,
        "Miles": 9073
      },
      "geometry": {
        "coordinates": [
          106.853995,
          -6.167506
        ],
        "type": "Point"
      },
      "id": "0406990bd3bbe3184395c83d9fa54556"
    },
    {
      "type": "Feature",
      "properties": {
        "Postcard ID": "US-5121292",
        "City": "Seattle",
        "Country": "USA",
        "Sent/Received": "Received",
        "Type": 1,
        "Days Traveled": 4,
        "Month": "January",
        "Year": 2018,
        "Miles": 700
      },
      "geometry": {
        "coordinates": [
          -122.299923,
          47.620818
        ],
        "type": "Point"
      },
      "id": "04f92d272b081ecae6e021a4d174b163"
    },
    {
      "type": "Feature",
      "properties": {
        "Postcard ID": "IN-248837",
        "City": "Chennai",
        "Country": "India",
        "Sent/Received": "Received",
        "Type": 1,
        "Days Traveled": 23,
        "Month": "August",
        "Year": 2017,
        "Miles": 8635
      },
      "geometry": {
        "coordinates": [
          80.256314,
          13.063757
        ],
        "type": "Point"
      },
      "id": "0514ca766c5c97598ea0d6ff209ed63e"
    },
    {
      "type": "Feature",
      "properties": {
        "Postcard ID": "DE-6270206",
        "City": "Leipzig",
        "Country": "Germany",
        "Sent/Received": "Received",
        "Type": 1,
        "Days Traveled": 9,
        "Month": "June",
        "Year": 2017,
        "Miles": 5244
      },
      "geometry": {
        "coordinates": [
          12.389544,
          51.34206
        ],
        "type": "Point"
      },
      "id": "052877153675b628b580dddf0bd8d8a1"
    },
    {
      "type": "Feature",
      "properties": {
        "Postcard ID": "NL-3824670",
        "City": "Tilburg",
        "Country": "Netherlands",
        "Sent/Received": "Received",
        "Type": 1,
        "Days Traveled": 11,
        "Month": "June",
        "Year": 2017,
        "Miles": 5021
      },
      "geometry": {
        "coordinates": [
          5.104951,
          51.552075
        ],
        "type": "Point"
      },
      "id": "06208266a91624ad5df758ca7ddfe2d9"
    },
    {
      "type": "Feature",
      "properties": {
        "Postcard ID": "RU-5733248",
        "City": "Moscow",
        "Country": "Russia",
        "Sent/Received": "Received",
        "Type": 1,
        "Days Traveled": 39,
        "Month": "July",
        "Year": 2017,
        "Miles": 5532
      },
      "geometry": {
        "coordinates": [
          37.674061,
          55.788114
        ],
        "type": "Point"
      },
      "id": "06e790a2dc97f29303a585000ba0f269"
    },
    {
      "type": "Feature",
      "properties": {
        "Postcard ID": "US-4834684",
        "City": "Pyhajoki",
        "Country": "Finland",
        "Sent/Received": "Sent",
        "Type": 2,
        "Days Traveled": 10,
        "Month": "August",
        "Year": 2017,
        "Miles": 4786
      },
      "geometry": {
        "coordinates": [
          24.285489,
          64.468127
        ],
        "type": "Point"
      },
      "id": "070b995861728d62bc0871627214217e"
    },
    {
      "type": "Feature",
      "properties": {
        "Postcard ID": "US-4945007",
        "City": "Freehold",
        "Country": "USA",
        "Sent/Received": "Received",
        "Type": 1,
        "Days Traveled": 9,
        "Month": "October",
        "Year": 2017,
        "Miles": 1960
      },
      "geometry": {
        "coordinates": [
          -74.274594,
          40.253406
        ],
        "type": "Point"
      },
      "id": "075de9cc1b91cc1383af9e3b2057c2d7"
    },
    {
      "type": "Feature",
      "properties": {
        "Postcard ID": "NL-3538866",
        "City": "Borssele",
        "Country": "Netherlands",
        "Sent/Received": "Received",
        "Type": 1,
        "Days Traveled": 10,
        "Month": "August",
        "Year": 2016,
        "Miles": 4987
      },
      "geometry": {
        "coordinates": [
          3.735301,
          51.423588
        ],
        "type": "Point"
      },
      "id": "076e409bed0ad9a499091c3a08219a61"
    },
    {
      "type": "Feature",
      "properties": {
        "Postcard ID": "US-4680247",
        "City": "Ritterhude",
        "Country": "Germany",
        "Sent/Received": "Sent",
        "Type": 2
        "Days Traveled": 10,
        "Month": "June",
        "Year": 2017,
        "Miles": 5047
      },
      "geometry": {
        "coordinates": [
          8.754677,
          53.179588
        ],
        "type": "Point"
      },
      "id": "07ac3a9b713e0ea7080e1be51ad18d94"
    },
    {
      "type": "Feature",
      "properties": {
        "Postcard ID": "IN-275755",
        "City": "Mumbai",
        "Country": "India",
        "Sent/Received": "Received",
        "Type": 1,
        "Days Traveled": 14,
        "Month": "January",
        "Year": 2018,
        "Miles": 8291
      },
      "geometry": {
        "coordinates": [
          72.825285,
          18.953226
        ],
        "type": "Point"
      },
      "id": "08317a77a9c0dbee4adf401ff500f7d0"
    },
    {
      "type": "Feature",
      "properties": {
        "Postcard ID": "US-4662714",
        "City": "Barnaul",
        "Country": "Russia",
        "Sent/Received": "Sent",
        "Type": 2,
        "Days Traveled": 28,
        "Month": "June",
        "Year": 2017,
        "Miles": 5867
      },
      "geometry": {
        "coordinates": [
          83.738841,
          53.352049
        ],
        "type": "Point"
      },
      "id": "08f4f702b5f9288d1978747ad731c7f7"
    },
    {
      "type": "Feature",
      "properties": {
        "Postcard ID": "FI-2735570",
        "City": "Kuopio",
        "Country": "Finland",
        "Sent/Received": "Received",
        "Type": 1,
        "Days Traveled": 9,
        "Month": "June",
        "Year": 2016,
        "Miles": 4935
      },
      "geometry": {
        "coordinates": [
          27.663961,
          62.883261
        ],
        "type": "Point"
      },
      "id": "09174891762d1af91f50e68006d87469"
    },
    {
      "type": "Feature",
      "properties": {
        "Postcard ID": "US-4927581",
        "City": "Laval",
        "Country": "Canada",
        "Sent/Received": "Sent",
        "Type": 2,
        "Days Traveled": 30,
        "Month": "November",
        "Year": 2017,
        "Miles": 1940
      },
      "geometry": {
        "coordinates": [
          -73.723666,
          45.596278
        ],
        "type": "Point"
      },
      "id": "09876c069fac4004f7a3e64dd334b40b"
    },
    {
      "type": "Feature",
      "properties": {
        "Postcard ID": "CA-761173",
        "City": "Montreal",
        "Country": "Canada",
        "Sent/Received": "Received",
        "Type": 1,
        "Days Traveled": 27,
        "Month": "November",
        "Year": 2017,
        "Miles": 1940
      },
      "geometry": {
        "coordinates": [
          -73.619917,
          45.503506
        ],
        "type": "Point"
      },
      "id": "0a5822cc016cce9dcd92b7d5669fe470"
    },
    {
      "type": "Feature",
      "properties": {
        "Postcard ID": "NL-3689106",
        "City": "Teylingen",
        "Country": "Netherlands",
        "Sent/Received": "Received",
        "Type": 1,
        "Days Traveled": 8,
        "Month": "January",
        "Year": 2017,
        "Miles": 4972
      },
      "geometry": {
        "coordinates": [
          4.520469,
          52.220788
        ],
        "type": "Point"
      },
      "id": "0a5e1841dee8c0dd058905fbd7a1bf72"
    },
    {
      "type": "Feature",
      "properties": {
        "Postcard ID": "US-4764385",
        "City": "Midland",
        "Country": "USA",
        "Sent/Received": "Sent",
        "Type": 2,
        "Days Traveled": 7,
        "Month": "July",
        "Year": 2017,
        "Miles": 1434
      },
      "geometry": {
        "coordinates": [
          -84.22283,
          43.632361
        ],
        "type": "Point"
      },
      "id": "0a77d030214e7fc23997ed2ce591a317"
    },
    {
      "type": "Feature",
      "properties": {
        "Postcard ID": "US-4945000",
        "City": "Mount Horeb",
        "Country": "USA",
        "Sent/Received": "Sent",
        "Type": 2,
        "Days Traveled": 8,
        "Month": "October",
        "Year": 2017,
        "Miles": 1146
      },
      "geometry": {
        "coordinates": [
          -89.739937,
          43.00518
        ],
        "type": "Point"
      },
      "id": "0b064528bbd650510035486fd6dc048e"
    },
    {
      "type": "Feature",
      "properties": {
        "Postcard ID": "US-3946006",
        "City": "Guangzhou",
        "Country": "China",
        "Sent/Received": "Sent",
        "Type": 2,
        "Days Traveled": 39,
        "Month": "May",
        "Year": 2016,
        "Miles": 7158
      },
      "geometry": {
        "coordinates": [
          113.253685,
          23.120001
        ],
        "type": "Point"
      },
      "id": "0b21d60f144b61f9aca90f7fd6e6eb83"
    },
    {
      "type": "Feature",
      "properties": {
        "Postcard ID": "US-4258944",
        "City": "Lobnya",
        "Country": "Russia",
        "Sent/Received": "Sent",
        "Type": 2,
        "Days Traveled": 20,
        "Month": "October",
        "Year": 2016,
        "Miles": 5514
      },
      "geometry": {
        "coordinates": [
          37.484547,
          56.01216
        ],
        "type": "Point"
      },
      "id": "0b45870c42359b4b28d96cfd86986697"
    },
    {
      "type": "Feature",
      "properties": {
        "Postcard ID": "RU-5837057",
        "City": "Moscow",
        "Country": "Russia",
        "Sent/Received": "Received",
        "Type": 1,
        "Days Traveled": 169,
        "Month": "January",
        "Year": 2018,
        "Miles": 5532
      },
      "geometry": {
        "coordinates": [
          37.615918,
          55.759362
        ],
        "type": "Point"
      },
      "id": "0b692b289a3a599211e342ec729e36c3"
    },
    {
      "type": "Feature",
      "properties": {
        "Postcard ID": "US-4476116",
        "City": "Hong Kong",
        "Country": "Hong Kong",
        "Sent/Received": "Sent",
        "Type": 2,
        "Days Traveled": 9,
        "Month": "February",
        "Year": 2017,
        "Miles": 7116
      },
      "geometry": {
        "coordinates": [
          114.17775,
          22.266818
        ],
        "type": "Point"
      },
      "id": "0c71b63dfa3aab9f979e66346f1a637f"
    },
    {
      "type": "Feature",
      "properties": {
        "Postcard ID": "US-4138686",
        "City": "Clearwater",
        "Country": "USA",
        "Sent/Received": "Received",
        "Type": 1,
        "Days Traveled": 4,
        "Month": "July",
        "Year": 2016,
        "Miles": 1865
      },
      "geometry": {
        "coordinates": [
          -82.787143,
          27.984292
        ],
        "type": "Point"
      },
      "id": "0c94d4ae461a414e2b2eeae5f1732986"
    },
    {
      "type": "Feature",
      "properties": {
        "Postcard ID": "RO-135332",
        "City": "Cluj-Napoca",
        "Country": "Romania",
        "Sent/Received": "Received",
        "Type": 1,
        "Days Traveled": 40,
        "Month": "May",
        "Year": 2017,
        "Miles": 5799
      },
      "geometry": {
        "coordinates": [
          23.583701,
          46.765574
        ],
        "type": "Point"
      },
      "id": "0c96ac867a5c4205b8b67f34f5b1de0f"
    },
    {
      "type": "Feature",
      "properties": {
        "Postcard ID": "US-4927536",
        "City": "Nantou City",
        "Country": "Taiwan",
        "Sent/Received": "Sent",
        "Type": 2,
        "Days Traveled": 11,
        "Month": "October",
        "Year": 2017,
        "Miles": 6839
      },
      "geometry": {
        "coordinates": [
          120.687964,
          23.905685
        ],
        "type": "Point"
      },
      "id": "0c9b60bac50cb0cd064551bc735ab0c4"
    },
    {
      "type": "Feature",
      "properties": {
        "Postcard ID": "HK-417743",
        "City": "Hong Kong",
        "Country": "Hong Kong",
        "Sent/Received": "Received",
        "Type": 1,
        "Days Traveled": 20,
        "Month": "May",
        "Year": 2016,
        "Miles": 7168
      },
      "geometry": {
        "coordinates": [
          114.176377,
          22.290327
        ],
        "type": "Point"
      },
      "id": "0d085946dfe491ee741824bd0c0ab233"
    },
    {
      "type": "Feature",
      "properties": {
        "Postcard ID": "US-4284231",
        "City": "Brussels",
        "Country": "Belgium",
        "Sent/Received": "Sent",
        "Type": 2,
        "Days Traveled": 5,
        "Month": "October",
        "Year": 2016,
        "Miles": 5034
      },
      "geometry": {
        "coordinates": [
          4.383665,
          50.856474
        ],
        "type": "Point"
      },
      "id": "0dffed9b024fe008e4abc461b02e26d2"
    },
    {
      "type": "Feature",
      "properties": {
        "Postcard ID": "US-5100398",
        "City": "Munich",
        "Country": "Germany",
        "Sent/Received": "Sent",
        "Type": 2,
        "Days Traveled": 5,
        "Month": "January",
        "Year": 2018,
        "Miles": 5385
      },
      "geometry": {
        "coordinates": [
          11.582503,
          48.138437
        ],
        "type": "Point"
      },
      "id": "0e0a1ec14c6ae35a27ae40b8fa40d2a6"
    },
    {
      "type": "Feature",
      "properties": {
        "Postcard ID": "US-4881873",
        "City": "Kelheim",
        "Country": "Germany",
        "Sent/Received": "Sent",
        "Type": 2,
        "Days Traveled": 7,
        "Month": "September",
        "Year": 2017,
        "Miles": 5359
      },
      "geometry": {
        "coordinates": [
          11.872916,
          48.91798
        ],
        "type": "Point"
      },
      "id": "0e31c623c37e30e84288a13a28907460"
    },
    {
      "type": "Feature",
      "properties": {
        "Postcard ID": "RU-4689366",
        "City": "Roslavl'",
        "Country": "Russia",
        "Sent/Received": "Received",
        "Type": 1,
        "Days Traveled": 27,
        "Month": "June",
        "Year": 2016,
        "Miles": 5566
      },
      "geometry": {
        "coordinates": [
          32.858171,
          53.949457
        ],
        "type": "Point"
      },
      "id": "0e9a6eee844ab6404e9311252e7ac0e3"
    },
    {
      "type": "Feature",
      "properties": {
        "Postcard ID": "PL-1234833",
        "City": "Poznan",
        "Country": "Poland",
        "Sent/Received": "Received",
        "Type": 1,
        "Days Traveled": 18,
        "Month": "July",
        "Year": 2016,
        "Miles": 5309
      },
      "geometry": {
        "coordinates": [
          16.948817,
          52.394745
        ],
        "type": "Point"
      },
      "id": "0ed97827c5ab71f95156820ac9160668"
    },
    {
      "type": "Feature",
      "properties": {
        "Postcard ID": "CA-751278",
        "City": "Barrie",
        "Country": "Canada",
        "Sent/Received": "Received",
        "Type": 1,
        "Days Traveled": 14,
        "Month": "September",
        "Year": 2017,
        "Miles": 1647
      },
      "geometry": {
        "coordinates": [
          -79.750735,
          44.391623
        ],
        "type": "Point"
      },
      "id": "0f7e1f20a2aae9f9a32046e01abcf153"
    },
    {
      "type": "Feature",
      "properties": {
        "Postcard ID": "US-4662714",
        "City": "Barnaul",
        "Country": "Russia",
        "Sent/Received": "Sent",
        "Type": 2,
        "Days Traveled": 28,
        "Month": "June",
        "Year": 2017,
        "Miles": 5867
      },
      "geometry": {
        "coordinates": [
          83.76768,
          53.370079
        ],
        "type": "Point"
      },
      "id": "1076b743b18ee0381d33872c221c2747"
    },
    {
      "type": "Feature",
      "properties": {
        "Postcard ID": "US-4596904",
        "City": "Krasnojarsk",
        "Country": "Russia",
        "Sent/Received": "Sent",
        "Type": 2,
        "Days Traveled": 107,
        "Month": "July",
        "Year": 2017,
        "Miles": 5594
      },
      "geometry": {
        "coordinates": [
          92.8472,
          56.015638
        ],
        "type": "Point"
      },
      "id": "10b56270b65962073f8ecdd46b734278"
    },
    {
      "type": "Feature",
      "properties": {
        "Postcard ID": "US-4423955",
        "City": "Vilnius",
        "Country": "Lithuania",
        "Sent/Received": "Sent",
        "Type": 2,
        "Days Traveled": 15,
        "Month": "January",
        "Year": 2017,
        "Miles": 5374
      },
      "geometry": {
        "coordinates": [
          25.289026,
          54.684668
        ],
        "type": "Point"
      },
      "id": "110551c2d46b6a76f161e1532b334de4"
    },
    {
      "type": "Feature",
      "properties": {
        "Postcard ID": "DE-6682985",
        "City": "Wuppertal",
        "Country": "Germany",
        "Sent/Received": "Received",
        "Type": 1,
        "Days Traveled": 14,
        "Month": "November",
        "Year": 2017,
        "Miles": 5098
      },
      "geometry": {
        "coordinates": [
          7.17818,
          51.25915
        ],
        "type": "Point"
      },
      "id": "118e039a8b50d265339fb9d179637289"
    },
    {
      "type": "Feature",
      "properties": {
        "Postcard ID": "US-4945002",
        "City": "Kuala Lumpur",
        "Country": "Malaysia",
        "Sent/Received": "Sent",
        "Type": 2,
        "Days Traveled": 10,
        "Month": "October",
        "Year": 2017,
        "Miles": 8738
      },
      "geometry": {
        "coordinates": [
          101.70444,
          3.144291
        ],
        "type": "Point"
      },
      "id": "11a10b1917e17bf4155da80efbb35912"
    },
    {
      "type": "Feature",
      "properties": {
        "Postcard ID": "US-4027176",
        "City": "Sontra",
        "Country": "Germany",
        "Sent/Received": "Sent",
        "Type": 2,
        "Days Traveled": 9,
        "Month": "May",
        "Year": 2016,
        "Miles": 5190
      },
      "geometry": {
        "coordinates": [
          9.932281,
          51.068512
        ],
        "type": "Point"
      },
      "id": "11deb0327fa33053cd28c888861480ed"
    },
    {
      "type": "Feature",
      "properties": {
        "Postcard ID": "US-3931605",
        "City": "Minsk",
        "Country": "Belarus",
        "Sent/Received": "Sent",
        "Type": 2,
        "Days Traveled": 10,
        "Month": "April",
        "Year": 2016,
        "Miles": 5468
      },
      "geometry": {
        "coordinates": [
          27.368943,
          53.925175
        ],
        "type": "Point"
      },
      "id": "11f956b2e26e161e5db963e8a809ee50"
    },
    {
      "type": "Feature",
      "properties": {
        "Postcard ID": "US-4873811",
        "City": "Portland",
        "Country": "USA",
        "Sent/Received": "Received",
        "Type": 1,
        "Days Traveled": 6,
        "Month": "September",
        "Year": 2017,
        "Miles": 2118
      },
      "geometry": {
        "coordinates": [
          -70.260284,
          43.65948
        ],
        "type": "Point"
      },
      "id": "1285afef6a728309723670c49d12e959"
    },
    {
      "type": "Feature",
      "properties": {
        "Postcard ID": "EE-241505",
        "City": "Tallinn",
        "Country": "Austria",
        "Sent/Received": "Received",
        "Days Traveled": 14,
        "Month": "January",
        "Year": 2018,
        "Miles": 5086
      },
      "geometry": {
        "coordinates": [
          24.752932,
          59.436864
        ],
        "type": "Point"
      },
      "id": "145e5ed9611ba4440a29708b72a55790"
    },
    {
      "type": "Feature",
      "properties": {
        "Postcard ID": "US-4989654",
        "City": "Munroe Falls",
        "Country": "USA",
        "Sent/Received": "Sent",
        "Days Traveled": 8,
        "Month": "November",
        "Year": 2017,
        "Miles": 1581
      },
      "geometry": {
        "coordinates": [
          -81.439871,
          41.13845
        ],
        "type": "Point"
      },
      "id": "14fc06e45f4bd6024c16a3f833176e24"
    },
    {
      "type": "Feature",
      "properties": {
        "Postcard ID": "US-4029088",
        "City": "Monroe",
        "Country": "USA",
        "Sent/Received": "Received",
        "Days Traveled": "10",
        "Month": "May",
        "Year": 2016,
        "Miles": "1232"
      },
      "geometry": {
        "coordinates": [
          -92.100937,
          32.516818
        ],
        "type": "Point"
      },
      "id": "15fee36dbd0a8d1626c914e9d2ff05c4"
    },
    {
      "type": "Feature",
      "properties": {
        "Postcard ID": "RU-4777185",
        "City": "Ufa",
        "Country": "Russia",
        "Sent/Received": "Received",
        "Days Traveled": "20",
        "Month": "June",
        "Year": 2016,
        "Miles": "5799"
      },
      "geometry": {
        "coordinates": [
          55.976783,
          54.732155
        ],
        "type": "Point"
      },
      "id": "16ffc2d6ab72fc91f115728baecb9e3f"
    },
    {
      "type": "Feature",
      "properties": {
        "Postcard ID": "LV-246266",
        "City": "Riga",
        "Country": "Latvia",
        "Sent/Received": "Received",
        "Days Traveled": "21",
        "Month": "December",
        "Year": 2016,
        "Miles": "5218"
      },
      "geometry": {
        "coordinates": [
          24.119343,
          56.936074
        ],
        "type": "Point"
      },
      "id": "177b09e8ef63674a790be26633ae23ad"
    },
    {
      "type": "Feature",
      "properties": {
        "Postcard ID": "FR-853967",
        "City": "Angouleme",
        "Country": "France",
        "Sent/Received": "Received",
        "Days Traveled": "9",
        "Month": "May",
        "Year": 2017,
        "Miles": "5143"
      },
      "geometry": {
        "coordinates": [
          0.154596,
          45.647571
        ],
        "type": "Point"
      },
      "id": "17e3b16c026e4cf80e737020a1e5dc73"
    },
    {
      "type": "Feature",
      "properties": {
        "Postcard ID": "US-4059810",
        "City": "Dallas",
        "Country": "USA",
        "Sent/Received": "Sent",
        "Days Traveled": "70",
        "Month": "August",
        "Year": 2016,
        "Miles": "987"
      },
      "geometry": {
        "coordinates": [
          -96.780637,
          32.788859
        ],
        "type": "Point"
      },
      "id": "17fc8baa6eb4ef6099d23aafde5c2993"
    },
    {
      "type": "Feature",
      "properties": {
        "Postcard ID": "DE-6683029",
        "City": "Dusseldorf",
        "Country": "Germany",
        "Sent/Received": "Received",
        "Days Traveled": 9,
        "Month": "November",
        "Year": 2017,
        "Miles": 5089
      },
      "geometry": {
        "coordinates": [
          6.783711,
          51.226131
        ],
        "type": "Point"
      },
      "id": "17fe8b350fb5aa45d37bc4171cdb129a"
    },
    {
      "type": "Feature",
      "properties": {
        "Postcard ID": "DE-6148388",
        "City": "Wuppertal",
        "Country": "Germany",
        "Sent/Received": "Received",
        "Days Traveled": "10",
        "Month": "April",
        "Year": 2017,
        "Miles": "5098"
      },
      "geometry": {
        "coordinates": [
          7.184835,
          51.276141
        ],
        "type": "Point"
      },
      "id": "1800ad07c3cd93e8b9eb4b62cd298518"
    },
    {
      "type": "Feature",
      "properties": {
        "Postcard ID": "US-4622477",
        "City": "Tainan",
        "Country": "Taiwan",
        "Sent/Received": "Sent",
        "Days Traveled": "23",
        "Month": "May",
        "Year": 2017,
        "Miles": "6908"
      },
      "geometry": {
        "coordinates": [
          120.206907,
          22.984288
        ],
        "type": "Point"
      },
      "id": "18832b539491c973f82b7f343350bf4d"
    },
    {
      "type": "Feature",
      "properties": {
        "Postcard ID": "US-5035996",
        "City": "Lismore",
        "Country": "Australia",
        "Sent/Received": "Sent",
        "Days Traveled": 23,
        "Month": "December",
        "Year": 2017,
        "Miles": 7721
      },
      "geometry": {
        "coordinates": [
          153.279711,
          -28.804669
        ],
        "type": "Point"
      },
      "id": "195b8f8ef2be94788a6566bd956cbf1d"
    },
    {
      "type": "Feature",
      "properties": {
        "Postcard ID": "CZ-1136011",
        "City": "Opava",
        "Country": "Czechia",
        "Sent/Received": "Received",
        "Days Traveled": "11",
        "Month": "March",
        "Year": 2017,
        "Miles": "5471"
      },
      "geometry": {
        "coordinates": [
          17.905738,
          49.943808
        ],
        "type": "Point"
      },
      "id": "195d6cd705a8492963fc9f6c0c561a72"
    },
    {
      "type": "Feature",
      "properties": {
        "Postcard ID": "FR-779333",
        "City": "Strasbourg",
        "Country": "France",
        "Sent/Received": "Received",
        "Days Traveled": "10",
        "Month": "November",
        "Year": 2016,
        "Miles": "5233"
      },
      "geometry": {
        "coordinates": [
          7.882679,
          49.011799
        ],
        "type": "Point"
      },
      "id": "1977869fde54de130ab76fe78a6c2f72"
    },
    {
      "type": "Feature",
      "properties": {
        "Postcard ID": "US-4512535",
        "City": "Nizhny Novgorod",
        "Country": "Russia",
        "Sent/Received": "Sent",
        "Days Traveled": "21",
        "Month": "March",
        "Year": 2017,
        "Miles": "5582"
      },
      "geometry": {
        "coordinates": [
          44.018683,
          56.321269
        ],
        "type": "Point"
      },
      "id": "199d5e75736ada94f49ab1fda6f659a9"
    },
    {
      "type": "Feature",
      "properties": {
        "Postcard ID": "US-4927552",
        "City": "Fort Wayne",
        "Country": "USA",
        "Sent/Received": "Received",
        "Days Traveled": "6",
        "Month": "October",
        "Year": 2017,
        "Miles": "1391"
      },
      "geometry": {
        "coordinates": [
          -85.145176,
          41.123861
        ],
        "type": "Point"
      },
      "id": "1a158fcca7de6a30190a9ce57eecffd7"
    },
    {
      "type": "Feature",
      "properties": {
        "Postcard ID": "US-4184875",
        "City": "New Orleans",
        "Country": "USA",
        "Sent/Received": "Sent",
        "Days Traveled": "4",
        "Month": "August",
        "Year": 2016,
        "Miles": "1432"
      },
      "geometry": {
        "coordinates": [
          -90.110365,
          29.974151
        ],
        "type": "Point"
      },
      "id": "1a502e00ed3a1fef0f237b4b32699147"
    },
    {
      "type": "Feature",
      "properties": {
        "Postcard ID": "US-5100393",
        "City": "Drammen",
        "Country": "Norway",
        "Sent/Received": "Sent",
        "Days Traveled": 9,
        "Month": "January",
        "Year": 2018,
        "Miles": 4755
      },
      "geometry": {
        "coordinates": [
          10.210189,
          59.746203
        ],
        "type": "Point"
      },
      "id": "1ab725e7f33c48023970825099a1978b"
    },
    {
      "type": "Feature",
      "properties": {
        "Postcard ID": "CA-763684",
        "City": "Windsor",
        "Country": "Canada",
        "Sent/Received": "Received",
        "Days Traveled": 15,
        "Month": "November",
        "Year": 2017,
        "Miles": 1490
      },
      "geometry": {
        "coordinates": [
          -83.041202,
          42.306346
        ],
        "type": "Point"
      },
      "id": "1ab79db646e3fdf2549be33a54eb953f"
    },
    {
      "type": "Feature",
      "properties": {
        "Postcard ID": "US-4345235",
        "City": "Moscow",
        "Country": "Russia",
        "Sent/Received": "Sent",
        "Days Traveled": "21",
        "Month": "December",
        "Year": 2016,
        "Miles": "5532"
      },
      "geometry": {
        "coordinates": [
          37.583424,
          55.76108
        ],
        "type": "Point"
      },
      "id": "1b1556d79a6aaa5a79c712bd1f26f4b2"
    },
    {
      "type": "Feature",
      "properties": {
        "Postcard ID": "US-4995661",
        "City": "Moscow",
        "Country": "Russia",
        "Sent/Received": "Sent",
        "Days Traveled": 21,
        "Month": "December",
        "Year": 2017,
        "Miles": 5532
      },
      "geometry": {
        "coordinates": [
          37.624091,
          55.75851
        ],
        "type": "Point"
      },
      "id": "1cdfd6327eaeac09a69f7d4f3c143ba5"
    },
    {
      "type": "Feature",
      "properties": {
        "Postcard ID": "US-4764435",
        "City": "Bangkok",
        "Country": "Thailand",
        "Sent/Received": "Sent",
        "Days Traveled": "10",
        "Month": "July",
        "Year": 2017,
        "Miles": "8137"
      },
      "geometry": {
        "coordinates": [
          100.501374,
          13.733383
        ],
        "type": "Point"
      },
      "id": "1d6bd2e5da8b5f309150ca608cc77f05"
    },
    {
      "type": "Feature",
      "properties": {
        "Postcard ID": "DE-5793252",
        "City": "Mannheim",
        "Country": "Germany",
        "Sent/Received": "Received",
        "Days Traveled": "34",
        "Month": "January",
        "Year": 2017,
        "Miles": "5208"
      },
      "geometry": {
        "coordinates": [
          8.469698,
          49.485364
        ],
        "type": "Point"
      },
      "id": "1d878330e5ad18452b98eb95bc537e20"
    },
    {
      "type": "Feature",
      "properties": {
        "Postcard ID": "DE-6461228",
        "City": "Kiel",
        "Country": "Germany",
        "Sent/Received": "Received",
        "Days Traveled": "14",
        "Month": "September",
        "Year": 2017,
        "Miles": "5028"
      },
      "geometry": {
        "coordinates": [
          10.131381,
          54.322652
        ],
        "type": "Point"
      },
      "id": "1ddcdec87ea1991ded98f87bb64d82c6"
    },
    {
      "type": "Feature",
      "properties": {
        "Postcard ID": "US-4633476",
        "City": "Denver",
        "Country": "USA",
        "Sent/Received": "Sent",
        "Days Traveled": "20",
        "Month": "May",
        "Year": 2017,
        "Miles": "366"
      },
      "geometry": {
        "coordinates": [
          -104.98481,
          39.737654
        ],
        "type": "Point"
      },
      "id": "1de6489725aaf1265151841f8bfb6443"
    },
    {
      "type": "Feature",
      "properties": {
        "Postcard ID": "US-5085466",
        "City": "Berlin",
        "Country": "Germany",
        "Sent/Received": "Sent",
        "Days Traveled": 9,
        "Month": "January",
        "Year": 2018,
        "Miles": 5210
      },
      "geometry": {
        "coordinates": [
          13.377836,
          52.530038
        ],
        "type": "Point"
      },
      "id": "1e3d4d9e587f1572ddccd6e7793d333f"
    },
    {
      "type": "Feature",
      "properties": {
        "Postcard ID": "US-4872371",
        "City": "Longyan",
        "Country": "China",
        "Sent/Received": "Sent",
        "Days Traveled": "26",
        "Month": "October",
        "Year": 2017,
        "Miles": "6928"
      },
      "geometry": {
        "coordinates": [
          116.838781,
          24.978926
        ],
        "type": "Point"
      },
      "id": "1e625879e05f0bbd86fb3ed740249ed5"
    },
    {
      "type": "Feature",
      "properties": {
        "Postcard ID": "US-4779024",
        "City": "Olomouc",
        "Country": "Czechia",
        "Sent/Received": "Sent",
        "Days Traveled": "10",
        "Month": "August",
        "Year": 2017,
        "Miles": "5472"
      },
      "geometry": {
        "coordinates": [
          17.252806,
          49.586493
        ],
        "type": "Point"
      },
      "id": "1ebadf0a0089ca523c03889f68978091"
    },
    {
      "type": "Feature",
      "properties": {
        "Postcard ID": "US-4061718",
        "City": "Vettweib",
        "Country": "Germany",
        "Sent/Received": "Sent",
        "Days Traveled": "9",
        "Month": "June",
        "Year": 2016,
        "Miles": "5108"
      },
      "geometry": {
        "coordinates": [
          6.592715,
          50.734222
        ],
        "type": "Point"
      },
      "id": "1ece87f0411c78aebdd0337fa4674258"
    },
    {
      "type": "Feature",
      "properties": {
        "Postcard ID": "US-4405823",
        "City": "Taipei",
        "Country": "Taiwan",
        "Sent/Received": "Sent",
        "Days Traveled": "27",
        "Month": "January",
        "Year": 2017,
        "Miles": "6744"
      },
      "geometry": {
        "coordinates": [
          121.503294,
          25.001591
        ],
        "type": "Point"
      },
      "id": "1ee32e8e31a8c1005a07894f9e2d46d7"
    },
    {
      "type": "Feature",
      "properties": {
        "Postcard ID": "CZ-1239402",
        "City": "Zlin",
        "Country": "Czechia",
        "Sent/Received": "Received",
        "Days Traveled": "13",
        "Month": "September",
        "Year": 2017,
        "Miles": "5501"
      },
      "geometry": {
        "coordinates": [
          17.679451,
          49.23095
        ],
        "type": "Point"
      },
      "id": "1f8a89f38199b6d7af394fafbaa012a8"
    },
    {
      "type": "Feature",
      "properties": {
        "Postcard ID": "US-4447464",
        "City": "Lincoln",
        "Country": "USA",
        "Sent/Received": "Sent",
        "Days Traveled": "4",
        "Month": "January",
        "Year": 2017,
        "Miles": "795"
      },
      "geometry": {
        "coordinates": [
          -96.698888,
          40.818125
        ],
        "type": "Point"
      },
      "id": "212e386067b0a12e29770b3ad48d29dc"
    },
    {
      "type": "Feature",
      "properties": {
        "Postcard ID": "RU-5943831",
        "City": "Irkutsk",
        "Country": "Russia",
        "Sent/Received": "Received",
        "Days Traveled": "18",
        "Month": "September",
        "Year": 2017,
        "Miles": "5651"
      },
      "geometry": {
        "coordinates": [
          104.256043,
          52.309647
        ],
        "type": "Point"
      },
      "id": "2279350fe9b6ee16ddd79046ed74dc36"
    },
    {
      "type": "Feature",
      "properties": {
        "Postcard ID": "DE-5505426",
        "City": "Hohensminde",
        "Country": "Germany",
        "Sent/Received": "Received",
        "Days Traveled": "140",
        "Month": "January",
        "Year": 2017,
        "Miles": "5003"
      },
      "geometry": {
        "coordinates": [
          7.991042,
          53.652939
        ],
        "type": "Point"
      },
      "id": "22f017a147c2668d242987b8f30f6e88"
    },
    {
      "type": "Feature",
      "properties": {
        "Postcard ID": "TW-2216131",
        "City": "Ban Qiao Qu",
        "Country": "Taiwan",
        "Sent/Received": "Received",
        "Days Traveled": "22",
        "Month": "April",
        "Year": 2017,
        "Miles": "6749"
      },
      "geometry": {
        "coordinates": [
          121.510878,
          24.969197
        ],
        "type": "Point"
      },
      "id": "22f4c1424421949f31a922cae9930273"
    },
    {
      "type": "Feature",
      "properties": {
        "Postcard ID": "US-4512527",
        "City": "Iligan City",
        "Country": "Philippines",
        "Sent/Received": "Sent",
        "Days Traveled": "31",
        "Month": "March",
        "Year": 2017,
        "Miles": "7525"
      },
      "geometry": {
        "coordinates": [
          124.195469,
          8.228406
        ],
        "type": "Point"
      },
      "id": "2341bc4284bc45cff76fd919bbe6628e"
    },
    {
      "type": "Feature",
      "properties": {
        "Postcard ID": "RU-5946204",
        "City": "Perm",
        "Country": "Russia",
        "Sent/Received": "Received",
        "Days Traveled": "14",
        "Month": "September",
        "Year": 2017,
        "Miles": "5577"
      },
      "geometry": {
        "coordinates": [
          56.216447,
          58.005296
        ],
        "type": "Point"
      },
      "id": "23496e5b4caa5ec3ed999b02db224953"
    },
    {
      "type": "Feature",
      "properties": {
        "Postcard ID": "US-4572619",
        "City": "San Rafael",
        "Country": "USA",
        "Sent/Received": "Sent",
        "Days Traveled": "10",
        "Month": "April",
        "Year": 2017,
        "Miles": "599"
      },
      "geometry": {
        "coordinates": [
          -122.531354,
          37.973914
        ],
        "type": "Point"
      },
      "id": "244cb1a09794ba399cbd6f57d934ec65"
    },
    {
      "type": "Feature",
      "properties": {
        "Postcard ID": "US-4369683",
        "City": "Taipei",
        "Country": "Taiwan",
        "Sent/Received": "Sent",
        "Days Traveled": "12",
        "Month": "December",
        "Year": 2016,
        "Miles": "6744"
      },
      "geometry": {
        "coordinates": [
          121.525267,
          24.971717
        ],
        "type": "Point"
      },
      "id": "262323a81765ed710115dc4506a56ce4"
    },
    {
      "type": "Feature",
      "properties": {
        "Postcard ID": "US-4640391",
        "City": "Ipoh",
        "Country": "Malaysia",
        "Sent/Received": "Sent",
        "Days Traveled": "15",
        "Month": "May",
        "Year": 2017,
        "Miles": "8673"
      },
      "geometry": {
        "coordinates": [
          101.090025,
          4.600372
        ],
        "type": "Point"
      },
      "id": "2679abc380c9586d0a6842aa7c6d2495"
    },
    {
      "type": "Feature",
      "properties": {
        "Postcard ID": "CN-2051650",
        "City": "Hangzhou",
        "Country": "China",
        "Sent/Received": "Received",
        "Days Traveled": "50",
        "Month": "November",
        "Year": 2016,
        "Miles": "6506"
      },
      "geometry": {
        "coordinates": [
          120.183221,
          30.288804
        ],
        "type": "Point"
      },
      "id": "270abffa208b556013fa0aea31f1794e"
    },
    {
      "type": "Feature",
      "properties": {
        "Postcard ID": "US-4345229",
        "City": "Dortmund",
        "Country": "Germany",
        "Sent/Received": "Sent",
        "Days Traveled": "12",
        "Month": "November",
        "Year": 2016,
        "Miles": "5095"
      },
      "geometry": {
        "coordinates": [
          7.444728,
          51.516475
        ],
        "type": "Point"
      },
      "id": "2822a741d016bb4bc7ea9ca9ee158ec2"
    },
    {
      "type": "Feature",
      "properties": {
        "Postcard ID": "US-4027183",
        "City": "Nanchong",
        "Country": "China",
        "Sent/Received": "Sent",
        "Days Traveled": "27",
        "Month": "June",
        "Year": 2016,
        "Miles": "6929"
      },
      "geometry": {
        "coordinates": [
          106.087383,
          30.799154
        ],
        "type": "Point"
      },
      "id": "28f39ef9aef40bb114df8ff2113f542d"
    },
    {
      "type": "Feature",
      "properties": {
        "Postcard ID": "RU-5651537",
        "City": "Chelyabinsk",
        "Country": "Russia",
        "Sent/Received": "Received",
        "Days Traveled": "23",
        "Month": "May",
        "Year": 2017,
        "Miles": "5798"
      },
      "geometry": {
        "coordinates": [
          61.400099,
          55.151104
        ],
        "type": "Point"
      },
      "id": "293d7e08a0e027a2d5c884817e92ffd1"
    },
    {
      "type": "Feature",
      "properties": {
        "Postcard ID": "DE-6074075",
        "City": "Freiberg",
        "Country": "Germany",
        "Sent/Received": "Received",
        "Days Traveled": "14",
        "Month": "April",
        "Year": 2017,
        "Miles": "5294"
      },
      "geometry": {
        "coordinates": [
          13.341584,
          50.916494
        ],
        "type": "Point"
      },
      "id": "293e50ba0bbefaf8a987a46ee521870a"
    },
    {
      "type": "Feature",
      "properties": {
        "Postcard ID": "JP-1063667",
        "City": "Tokyo",
        "Country": "Japan",
        "Sent/Received": "Received",
        "Days Traveled": 9,
        "Month": "January",
        "Year": 2018,
        "Miles": 5476
      },
      "geometry": {
        "coordinates": [
          139.766178,
          35.695407
        ],
        "type": "Point"
      },
      "id": "2b9d9657ecc2b18ff242f8a6ad35b58c"
    },
    {
      "type": "Feature",
      "properties": {
        "Postcard ID": "US-4380888",
        "City": "Phoenix",
        "Country": "USA",
        "Sent/Received": "Sent",
        "Days Traveled": "5",
        "Month": "December",
        "Year": 2016,
        "Miles": "511"
      },
      "geometry": {
        "coordinates": [
          -112.050737,
          33.438317
        ],
        "type": "Point"
      },
      "id": "2bd733896309a3d0430a0954233c567f"
    },
    {
      "type": "Feature",
      "properties": {
        "Postcard ID": "DE-5303840",
        "City": "Biedenkopf",
        "Country": "Germany",
        "Sent/Received": "Received",
        "Days Traveled": "8",
        "Month": "June",
        "Year": 2016,
        "Miles": "5157"
      },
      "geometry": {
        "coordinates": [
          8.530874,
          50.911875
        ],
        "type": "Point"
      },
      "id": "2be254a3858f4c3d2d2abcf64066f934"
    },
    {
      "type": "Feature",
      "properties": {
        "Postcard ID": "US-4927569",
        "City": "Wellington",
        "Country": "New Zealand",
        "Sent/Received": "Sent",
        "Days Traveled": 14,
        "Month": "October",
        "Year": 2017,
        "Miles": 7251
      },
      "geometry": {
        "coordinates": [
          174.777391,
          -41.298176
        ],
        "type": "Point"
      },
      "id": "2caac57dc3250ab1289742cc69c6203a"
    },
    {
      "type": "Feature",
      "properties": {
        "Postcard ID": "RU-5075860",
        "City": "Aprelevka",
        "Country": "Russia",
        "Sent/Received": "Received",
        "Days Traveled": "47",
        "Month": "November",
        "Year": 2016,
        "Miles": "5537"
      },
      "geometry": {
        "coordinates": [
          37.057115,
          55.537975
        ],
        "type": "Point"
      },
      "id": "2cd812f8df1a78d61a3a6610708ff103"
    },
    {
      "type": "Feature",
      "properties": {
        "Postcard ID": "US-4027184",
        "City": "Espoo",
        "Country": "Finland",
        "Sent/Received": "Sent",
        "Days Traveled": "10",
        "Month": "May",
        "Year": 2016,
        "Miles": "5039"
      },
      "geometry": {
        "coordinates": [
          24.609075,
          60.199496
        ],
        "type": "Point"
      },
      "id": "2d6a0d79e731e800e9810a44e4286923"
    },
    {
      "type": "Feature",
      "properties": {
        "Postcard ID": "US-5085437",
        "City": "Dallas",
        "Country": "USA",
        "Sent/Received": "Sent",
        "Days Traveled": 6,
        "Month": "January",
        "Year": 2018,
        "Miles": 998
      },
      "geometry": {
        "coordinates": [
          -96.832344,
          32.782171
        ],
        "type": "Point"
      },
      "id": "2d781e9182fe0f2c54f38b0072a4de45"
    },
    {
      "type": "Feature",
      "properties": {
        "Postcard ID": "US-4954631",
        "City": "Moscow",
        "Country": "Russia",
        "Sent/Received": "Sent",
        "Days Traveled": 15,
        "Month": "November",
        "Year": 2017,
        "Miles": 5532
      },
      "geometry": {
        "coordinates": [
          37.61096,
          55.754076
        ],
        "type": "Point"
      },
      "id": "2e12d09d9bb31ec8bbfdb8361188b8b6"
    },
    {
      "type": "Feature",
      "properties": {
        "Postcard ID": "US-4184880",
        "City": "Leiden",
        "Country": "Netherlands",
        "Sent/Received": "Sent",
        "Days Traveled": "11",
        "Month": "August",
        "Year": 2016,
        "Miles": "4974"
      },
      "geometry": {
        "coordinates": [
          4.498788,
          52.154067
        ],
        "type": "Point"
      },
      "id": "2ea2906959b75e13b0b520d326fc5006"
    },
    {
      "type": "Feature",
      "properties": {
        "Postcard ID": "NL-3700021",
        "City": "Ede",
        "Country": "Netherlands",
        "Sent/Received": "Received",
        "Days Traveled": "14",
        "Month": "February",
        "Year": 2017,
        "Miles": "5015"
      },
      "geometry": {
        "coordinates": [
          5.65807,
          52.040979
        ],
        "type": "Point"
      },
      "id": "2f77a12442e80190b7765fa57c77f1b9"
    },
    {
      "type": "Feature",
      "properties": {
        "Postcard ID": "US-4680245",
        "City": "Wirral",
        "Country": "United Kingdom",
        "Sent/Received": "Sent",
        "Days Traveled": "8",
        "Month": "June",
        "Year": 2017,
        "Miles": "4681"
      },
      "geometry": {
        "coordinates": [
          -3.104071,
          53.376295
        ],
        "type": "Point"
      },
      "id": "3080be5dd0b67266f30f7c9f3c99ff0d"
    },
    {
      "type": "Feature",
      "properties": {
        "Postcard ID": "DE-6682977",
        "City": "Bunde",
        "Country": "Germany",
        "Sent/Received": "Received",
        "Days Traveled": 14,
        "Month": "November",
        "Year": 2017,
        "Miles": 5094
      },
      "geometry": {
        "coordinates": [
          8.585237,
          52.200841
        ],
        "type": "Point"
      },
      "id": "309d7aa107f0b3c4bf7d6254e3910b0a"
    },
    {
      "type": "Feature",
      "properties": {
        "Postcard ID": "US-4421236",
        "City": "Waynesville",
        "Country": "USA",
        "Sent/Received": "Sent",
        "Days Traveled": "13",
        "Month": "January",
        "Year": 2017,
        "Miles": "1604"
      },
      "geometry": {
        "coordinates": [
          -82.981012,
          35.474742
        ],
        "type": "Point"
      },
      "id": "31ad135d3951676668e53c21c8dbb122"
    },
    {
      "type": "Feature",
      "properties": {
        "Postcard ID": "US-5121286",
        "City": "Verl",
        "Country": "Germany",
        "Sent/Received": "Sent",
        "Days Traveled": 12,
        "Month": "February",
        "Year": 2018,
        "Miles": 5107
      },
      "geometry": {
        "coordinates": [
          8.509683,
          51.881384
        ],
        "type": "Point"
      },
      "id": "31c2ccb7cd6201335e378e4cafe235f2"
    },
    {
      "type": "Feature",
      "properties": {
        "Postcard ID": "US-4374875",
        "City": "La Junta",
        "Country": "USA",
        "Sent/Received": "Received",
        "Days Traveled": "6",
        "Month": "December",
        "Year": 2016,
        "Miles": "485"
      },
      "geometry": {
        "coordinates": [
          -103.544528,
          37.978968
        ],
        "type": "Point"
      },
      "id": "32222ec4b46ebe5a7f813c013931bb3c"
    },
    {
      "type": "Feature",
      "properties": {
        "Postcard ID": "US-4106075",
        "City": "Merseburg",
        "Country": "Germany",
        "Sent/Received": "Sent",
        "Days Traveled": "10",
        "Month": "July",
        "Year": 2016,
        "Miles": "5233"
      },
      "geometry": {
        "coordinates": [
          11.993652,
          51.358521
        ],
        "type": "Point"
      },
      "id": "32240d6bb0d51e36fc37827cb52b63ad"
    },
    {
      "type": "Feature",
      "properties": {
        "Postcard ID": "US-5035992",
        "City": "Berlin",
        "Country": "Germany",
        "Sent/Received": "Received",
        "Days Traveled": 8,
        "Month": "December",
        "Year": 2017,
        "Miles": 5210
      },
      "geometry": {
        "coordinates": [
          13.423155,
          52.515834
        ],
        "type": "Point"
      },
      "id": "329cf88aeff9afe74979f760cd3ef411"
    },
    {
      "type": "Feature",
      "properties": {
        "Postcard ID": "PT-539289",
        "City": "Figueira da Foz",
        "Country": "Portugal",
        "Sent/Received": "Received",
        "Days Traveled": 58,
        "Month": "November",
        "Year": 2017,
        "Miles": 5051
      },
      "geometry": {
        "coordinates": [
          -8.857786,
          40.131909
        ],
        "type": "Point"
      },
      "id": "3334767a3b7e2f8996748d694ee9ffff"
    },
    {
      "type": "Feature",
      "properties": {
        "Postcard ID": "US-4501621",
        "City": "Ogden",
        "Country": "USA",
        "Sent/Received": "Received",
        "Days Traveled": "6",
        "Month": "February",
        "Year": 2017,
        "Miles": "32"
      },
      "geometry": {
        "coordinates": [
          -111.969879,
          41.223547
        ],
        "type": "Point"
      },
      "id": "33e4c30c2770268ce0b51af0b8a71055"
    },
    {
      "type": "Feature",
      "properties": {
        "Postcard ID": "US-45122517",
        "City": "Houston",
        "Country": "USA",
        "Sent/Received": "Received",
        "Days Traveled": "6",
        "Month": "February",
        "Year": 2017,
        "Miles": "1181"
      },
      "geometry": {
        "coordinates": [
          -95.352513,
          29.779143
        ],
        "type": "Point"
      },
      "id": "350e5d561ca91a4edccfdb4f6e8c927a"
    },
    {
      "type": "Feature",
      "properties": {
        "Postcard ID": "US-4061717",
        "City": "Hoorn",
        "Country": "Netherlands",
        "Sent/Received": "Sent",
        "Days Traveled": "15",
        "Month": "June",
        "Year": 2016,
        "Miles": "4967"
      },
      "geometry": {
        "coordinates": [
          5.057038,
          52.641738
        ],
        "type": "Point"
      },
      "id": "35aa9fa06fafa1dfdb562d730ea2d0a0"
    },
    {
      "type": "Feature",
      "properties": {
        "Postcard ID": "US-4345230",
        "City": "Viljandi",
        "Country": "Estonia",
        "Sent/Received": "Sent",
        "Days Traveled": "13",
        "Month": "November",
        "Year": 2016,
        "Miles": "5164"
      },
      "geometry": {
        "coordinates": [
          25.639272,
          58.363221
        ],
        "type": "Point"
      },
      "id": "363f8ab8d1c4c65d43a0671f0be67de2"
    },
    {
      "type": "Feature",
      "properties": {
        "Postcard ID": "US-4055864",
        "City": "Miri",
        "Country": "Malaysia",
        "Sent/Received": "Sent",
        "Days Traveled": "20",
        "Month": "June",
        "Year": 2016,
        "Miles": "8179"
      },
      "geometry": {
        "coordinates": [
          114.00634,
          4.41892
        ],
        "type": "Point"
      },
      "id": "36caec0535b3f949d62de01c0a55d9cd"
    },
    {
      "type": "Feature",
      "properties": {
        "Postcard ID": "US-5109012",
        "City": "Taipei",
        "Country": "China",
        "Sent/Received": "Sent",
        "Days Traveled": 19,
        "Month": "February",
        "Year": 2018,
        "Miles": 6744
      },
      "geometry": {
        "coordinates": [
          121.520778,
          25.05899
        ],
        "type": "Point"
      },
      "id": "37247808458f1db33626c2eb23374e4f"
    },
    {
      "type": "Feature",
      "properties": {
        "Postcard ID": "US-4258947",
        "City": "Ludwigsfelde",
        "Country": "Germany",
        "Sent/Received": "Sent",
        "Days Traveled": "6",
        "Month": "September",
        "Year": 2016,
        "Miles": "5218"
      },
      "geometry": {
        "coordinates": [
          13.273574,
          52.29967
        ],
        "type": "Point"
      },
      "id": "37567386e9d86bf6f64ec7f83037ce59"
    },
    {
      "type": "Feature",
      "properties": {
        "Postcard ID": "US-4945043",
        "City": "Montelimar",
        "Country": "France",
        "Sent/Received": "Sent",
        "Days Traveled": 11,
        "Month": "October",
        "Year": 2017,
        "Miles": 5356
      },
      "geometry": {
        "coordinates": [
          4.751688,
          44.559099
        ],
        "type": "Point"
      },
      "id": "375f1df9fa2516fbd182da9584bef510"
    },
    {
      "type": "Feature",
      "properties": {
        "Postcard ID": "HK-490917",
        "City": "Hong Kong",
        "Country": "Hong Kong",
        "Sent/Received": "Received",
        "Days Traveled": "14",
        "Month": "May",
        "Year": 2017,
        "Miles": "7173"
      },
      "geometry": {
        "coordinates": [
          114.142045,
          22.285244
        ],
        "type": "Point"
      },
      "id": "376ac46ea47dcf74893da5423e2e664f"
    },
    {
      "type": "Feature",
      "properties": {
        "Postcard ID": "US-4953400",
        "City": "Sao Jose do Rio Pardo",
        "Country": "Brazil",
        "Sent/Received": "Sent",
        "Days Traveled": 19,
        "Month": "November",
        "Year": 2017,
        "Miles": 5991
      },
      "geometry": {
        "coordinates": [
          -46.886956,
          -21.595619
        ],
        "type": "Point"
      },
      "id": "3777b9e996ead11ec577e1c5b6b4fe48"
    },
    {
      "type": "Feature",
      "properties": {
        "Postcard ID": "CH-323253",
        "City": "Lucerne",
        "Country": "Switzerland",
        "Sent/Received": "Received",
        "Days Traveled": "12",
        "Month": "December",
        "Year": 2016,
        "Miles": "5347"
      },
      "geometry": {
        "coordinates": [
          8.423551,
          47.07769
        ],
        "type": "Point"
      },
      "id": "37ac5d739478be830e883fc937f6fb1a"
    },
    {
      "type": "Feature",
      "properties": {
        "Postcard ID": "US-4834667",
        "City": "Blatna",
        "Country": "Czechia",
        "Sent/Received": "Sent",
        "Days Traveled": "10",
        "Month": "August",
        "Year": 2017,
        "Miles": "5389"
      },
      "geometry": {
        "coordinates": [
          13.884431,
          49.43079
        ],
        "type": "Point"
      },
      "id": "37bc6f2cc8aa90eaf8c73786e2e8a28c"
    },
    {
      "type": "Feature",
      "properties": {
        "Postcard ID": "NL-3796877",
        "City": "Hoorn",
        "Country": "Netherlands",
        "Sent/Received": "Received",
        "Days Traveled": "143",
        "Month": "September",
        "Year": 2017,
        "Miles": "4967"
      },
      "geometry": {
        "coordinates": [
          5.060042,
          52.641425
        ],
        "type": "Point"
      },
      "id": "37be237ea4524473babbd1c8a0162e05"
    },
    {
      "type": "Feature",
      "properties": {
        "Postcard ID": "DE-5825977",
        "City": "Konigslutter am Elm",
        "Country": "Germany",
        "Sent/Received": "Received",
        "Days Traveled": "14",
        "Month": "December",
        "Year": 2016,
        "Miles": "5154"
      },
      "geometry": {
        "coordinates": [
          10.815898,
          52.251147
        ],
        "type": "Point"
      },
      "id": "38b61a3bfe47ef47800ba0ea81d089e7"
    },
    {
      "type": "Feature",
      "properties": {
        "Postcard ID": "RU-5245981",
        "City": "Moscow",
        "Country": "Russia",
        "Sent/Received": "Received",
        "Days Traveled": "42",
        "Month": "January",
        "Year": 2017,
        "Miles": "5532"
      },
      "geometry": {
        "coordinates": [
          37.608143,
          55.8105
        ],
        "type": "Point"
      },
      "id": "38e20a1dab34ccf4b15c6d8b24507bd6"
    },
    {
      "type": "Feature",
      "properties": {
        "Postcard ID": "US-4389635",
        "City": "Moscow",
        "Country": "Russia",
        "Sent/Received": "Sent",
        "Days Traveled": "25",
        "Month": "January",
        "Year": 2017,
        "Miles": "5532"
      },
      "geometry": {
        "coordinates": [
          37.638355,
          55.77653
        ],
        "type": "Point"
      },
      "id": "391c19a2d37fa4e7f1e242240376c8fc"
    },
    {
      "type": "Feature",
      "properties": {
        "Postcard ID": "NL-3789829",
        "City": "Goes",
        "Country": "Netherlands",
        "Sent/Received": "Received",
        "Days Traveled": "20",
        "Month": "May",
        "Year": 2017,
        "Miles": "4987"
      },
      "geometry": {
        "coordinates": [
          3.893394,
          51.502664
        ],
        "type": "Point"
      },
      "id": "391e362e9ed97009f18b3ebf84487dd9"
    },
    {
      "type": "Feature",
      "properties": {
        "Postcard ID": "US-4779023",
        "City": "Houston",
        "Country": "USA",
        "Sent/Received": "Sent",
        "Days Traveled": "49",
        "Month": "September",
        "Year": 2017,
        "Miles": "1199"
      },
      "geometry": {
        "coordinates": [
          -95.352839,
          29.7559
        ],
        "type": "Point"
      },
      "id": "3962371b7dc1037cc536e9d46b2bad70"
    },
    {
      "type": "Feature",
      "properties": {
        "Postcard ID": "HK-413705",
        "City": "Hong Kong",
        "Country": "Hong Kong",
        "Sent/Received": "Received",
        "Days Traveled": "18",
        "Month": "April",
        "Year": 2016,
        "Miles": "7173"
      },
      "geometry": {
        "coordinates": [
          114.203843,
          22.280161
        ],
        "type": "Point"
      },
      "id": "39d6df4cd19a48d1bf4c16c02a932921"
    },
    {
      "type": "Feature",
      "properties": {
        "Postcard ID": "NL-3440336",
        "City": "Utrecht",
        "Country": "Netherlands",
        "Sent/Received": "Received",
        "Days Traveled": "9",
        "Month": "May",
        "Year": 2016,
        "Miles": "4997"
      },
      "geometry": {
        "coordinates": [
          5.134087,
          52.094813
        ],
        "type": "Point"
      },
      "id": "3b9419d6e7786e1a7c45a99152d78a7e"
    },
    {
      "type": "Feature",
      "properties": {
        "Postcard ID": "US-4944983",
        "City": "Saint Petersburg",
        "Country": "Russia",
        "Sent/Received": "Sent",
        "Days Traveled": 30,
        "Month": "November",
        "Year": 2017,
        "Miles": 5156
      },
      "geometry": {
        "coordinates": [
          30.268604,
          59.943466
        ],
        "type": "Point"
      },
      "id": "3bc07fc12aab5aedf716438a144b0d40"
    },
    {
      "type": "Feature",
      "properties": {
        "Postcard ID": "US-4346758",
        "City": "Bridgeport",
        "Country": "USA",
        "Sent/Received": "Received",
        "Days Traveled": "4",
        "Month": "November",
        "Year": 2016,
        "Miles": "2001"
      },
      "geometry": {
        "coordinates": [
          -73.178052,
          41.186577
        ],
        "type": "Point"
      },
      "id": "3bd49d9070e904a15ec6ff4942ad2755"
    },
    {
      "type": "Feature",
      "properties": {
        "Postcard ID": "US-4554316",
        "City": "St Paul",
        "Country": "USA",
        "Sent/Received": "Received",
        "Days Traveled": "13",
        "Month": "March",
        "Year": 2017,
        "Miles": "972"
      },
      "geometry": {
        "coordinates": [
          -93.100084,
          44.95559
        ],
        "type": "Point"
      },
      "id": "3cb356fe0653d34a2fdcdaeb00240a96"
    },
    {
      "type": "Feature",
      "properties": {
        "Postcard ID": "IT-416896",
        "City": "Milan",
        "Country": "Italy",
        "Sent/Received": "Received",
        "Days Traveled": "29",
        "Month": "September",
        "Year": 2017,
        "Miles": "5436"
      },
      "geometry": {
        "coordinates": [
          9.043046,
          45.66515
        ],
        "type": "Point"
      },
      "id": "3d2f05d7838810fb7018899b0619c848"
    },
    {
      "type": "Feature",
      "properties": {
        "Postcard ID": "JP-1028228",
        "City": "Kawagoe",
        "Country": "Japan",
        "Sent/Received": "Received",
        "Days Traveled": 19,
        "Month": "November",
        "Year": 2017,
        "Miles": 5465
      },
      "geometry": {
        "coordinates": [
          139.478837,
          35.907035
        ],
        "type": "Point"
      },
      "id": "3e8b94e0efe4d588a75997d43dd48c94"
    },
    {
      "type": "Feature",
      "properties": {
        "Postcard ID": "US-4184873",
        "City": "Wielen",
        "Country": "Germany",
        "Sent/Received": "Sent",
        "Days Traveled": "9",
        "Month": "August",
        "Year": 2016,
        "Miles": "5040"
      },
      "geometry": {
        "coordinates": [
          10.333539,
          54.193185
        ],
        "type": "Point"
      },
      "id": "3ef920df99b0f3ecf04edffc602beca1"
    },
    {
      "type": "Feature",
      "properties": {
        "Postcard ID": "US-3959897",
        "City": "Kotka",
        "Country": "Finland",
        "Sent/Received": "Sent",
        "Days Traveled": "8",
        "Month": "April",
        "Year": 2016,
        "Miles": "5065"
      },
      "geometry": {
        "coordinates": [
          26.949819,
          60.466301
        ],
        "type": "Point"
      },
      "id": "40c9abfa5059688b65e2a8c158608323"
    },
    {
      "type": "Feature",
      "properties": {
        "Postcard ID": "US-4447465",
        "City": "Kasseedorf",
        "Country": "Germany",
        "Sent/Received": "Sent",
        "Days Traveled": "11",
        "Month": "January",
        "Year": 2017,
        "Miles": "5052"
      },
      "geometry": {
        "coordinates": [
          10.724327,
          54.163858
        ],
        "type": "Point"
      },
      "id": "40e6b00cce94f75a121ace83d26f03f5"
    },
    {
      "type": "Feature",
      "properties": {
        "Postcard ID": "US-4384228",
        "City": "Alpena",
        "Country": "USA",
        "Sent/Received": "Sent",
        "Days Traveled": "30",
        "Month": "November",
        "Year": 2016,
        "Miles": "1462"
      },
      "geometry": {
        "coordinates": [
          -83.440171,
          45.061576
        ],
        "type": "Point"
      },
      "id": "419a6d6026e50d3015baf6987c4b8d10"
    },
    {
      "type": "Feature",
      "properties": {
        "Postcard ID": "US-4680246",
        "City": "Chicago",
        "Country": "USA",
        "Sent/Received": "Sent",
        "Days Traveled": "12",
        "Month": "June",
        "Year": 2017,
        "Miles": "1256"
      },
      "geometry": {
        "coordinates": [
          -87.6273,
          41.895291
        ],
        "type": "Point"
      },
      "id": "41a539157390efdae47ee3ed304f9f21"
    },
    {
      "type": "Feature",
      "properties": {
        "Postcard ID": "US-4640392",
        "City": "Norfolk",
        "Country": "USA",
        "Sent/Received": "Received",
        "Days Traveled": "5",
        "Month": "May",
        "Year": 2017,
        "Miles": "1924"
      },
      "geometry": {
        "coordinates": [
          -76.283515,
          36.852385
        ],
        "type": "Point"
      },
      "id": "41c5fa3d021e5ebae1157008f453e739"
    },
    {
      "type": "Feature",
      "properties": {
        "Postcard ID": "DE-6871396",
        "City": "Munich",
        "Country": "Germany",
        "Sent/Received": "Received",
        "Days Traveled": 14,
        "Month": "January",
        "Year": 2018,
        "Miles": 5381
      },
      "geometry": {
        "coordinates": [
          11.577824,
          48.13038
        ],
        "type": "Point"
      },
      "id": "4224a9725a66aa12d326eea3fadc1ede"
    },
    {
      "type": "Feature",
      "properties": {
        "Postcard ID": "US-4044824",
        "City": "Seattle",
        "Country": "USA",
        "Sent/Received": "Received",
        "Days Traveled": "5",
        "Month": "June",
        "Year": 2016,
        "Miles": "686"
      },
      "geometry": {
        "coordinates": [
          -122.307992,
          47.585626
        ],
        "type": "Point"
      },
      "id": "42cffea4fea90faab1306f8fc7cf7173"
    },
    {
      "type": "Feature",
      "properties": {
        "Postcard ID": "US-4403748",
        "City": "Budingen",
        "Country": "Germany",
        "Sent/Received": "Sent",
        "Days Traveled": "12",
        "Month": "December",
        "Year": 2016,
        "Miles": "5205"
      },
      "geometry": {
        "coordinates": [
          9.111245,
          50.289884
        ],
        "type": "Point"
      },
      "id": "433551d5d7d2ede63233985ab9552e72"
    },
    {
      "type": "Feature",
      "properties": {
        "Postcard ID": "LT-519082",
        "City": "Teksuau",
        "Country": "Lithuania",
        "Sent/Received": "Received",
        "Days Traveled": "87",
        "Month": "October",
        "Year": 2016,
        "Miles": "5229"
      },
      "geometry": {
        "coordinates": [
          21.998982,
          55.872321
        ],
        "type": "Point"
      },
      "id": "43bf324365aa0b27914f58be9d177ea6"
    },
    {
      "type": "Feature",
      "properties": {
        "Postcard ID": "US-4476110",
        "City": "Taipei",
        "Country": "Taiwan",
        "Sent/Received": "Sent",
        "Days Traveled": "14",
        "Month": "February",
        "Year": 2017,
        "Miles": "6744"
      },
      "geometry": {
        "coordinates": [
          121.547239,
          25.041412
        ],
        "type": "Point"
      },
      "id": "43c8af7d4b3c80d11da6c646306172b6"
    },
    {
      "type": "Feature",
      "properties": {
        "Postcard ID": "US-4834707",
        "City": "Taoyuan",
        "Country": "Taiwan",
        "Sent/Received": "Sent",
        "Days Traveled": "12",
        "Month": "September",
        "Year": 2017,
        "Miles": "6756"
      },
      "geometry": {
        "coordinates": [
          121.294554,
          24.971717
        ],
        "type": "Point"
      },
      "id": "441afc4b8e3b878862dd0d5b56996023"
    },
    {
      "type": "Feature",
      "properties": {
        "Postcard ID": "US-4852968",
        "City": "Lafayette",
        "Country": "USA",
        "Sent/Received": "Sent",
        "Days Traveled": "7",
        "Month": "September",
        "Year": 2017,
        "Miles": "1308"
      },
      "geometry": {
        "coordinates": [
          -86.867241,
          40.417135
        ],
        "type": "Point"
      },
      "id": "453c77569f102e15ff20d3d0ab6869c4"
    },
    {
      "type": "Feature",
      "properties": {
        "Postcard ID": "US-4380364",
        "City": "Berlin",
        "Country": "Germany",
        "Sent/Received": "Sent",
        "Days Traveled": "10",
        "Month": "December",
        "Year": 2016,
        "Miles": "5210"
      },
      "geometry": {
        "coordinates": [
          13.388926,
          52.509873
        ],
        "type": "Point"
      },
      "id": "4576e8d969d472974d8f6c1c9dd60fb4"
    },
    {
      "type": "Feature",
      "properties": {
        "Postcard ID": "RU-5616577",
        "City": "Fryanovo",
        "Country": "Russia",
        "Sent/Received": "Received",
        "Days Traveled": "24",
        "Month": "May",
        "Year": 2017,
        "Miles": "5525"
      },
      "geometry": {
        "coordinates": [
          38.463345,
          56.083471
        ],
        "type": "Point"
      },
      "id": "45afe8cc79d92970ecf5ce28207174d7"
    },
    {
      "type": "Feature",
      "properties": {
        "Postcard ID": "RU-5369830",
        "City": "Samara",
        "Country": "Russia",
        "Sent/Received": "Received",
        "Days Traveled": "29",
        "Month": "February",
        "Year": 2017,
        "Miles": "5856"
      },
      "geometry": {
        "coordinates": [
          50.170987,
          53.193036
        ],
        "type": "Point"
      },
      "id": "45c1de0e1eaa2a1418acbd3b2f14ff63"
    },
    {
      "type": "Feature",
      "properties": {
        "Postcard ID": "US-4138879",
        "City": "Cracow",
        "Country": "Poland",
        "Sent/Received": "Sent",
        "Days Traveled": "8",
        "Month": "July",
        "Year": 2016,
        "Miles": "5501"
      },
      "geometry": {
        "coordinates": [
          19.842341,
          50.01113
        ],
        "type": "Point"
      },
      "id": "45f50d09ef9c65410f2536028ae09ca0"
    },
    {
      "type": "Feature",
      "properties": {
        "Postcard ID": "US-4412231",
        "City": "Vienna",
        "Country": "Austria",
        "Sent/Received": "Sent",
        "Days Traveled": "16",
        "Month": "January",
        "Year": 2017,
        "Miles": "5525"
      },
      "geometry": {
        "coordinates": [
          16.367301,
          48.201131
        ],
        "type": "Point"
      },
      "id": "46226444b063be5a1741795388ced14f"
    },
    {
      "type": "Feature",
      "properties": {
        "Postcard ID": "RU-5540819",
        "City": "Bakaly",
        "Country": "Russia",
        "Sent/Received": "Received",
        "Days Traveled": "22",
        "Month": "April",
        "Year": 2017,
        "Miles": "5755"
      },
      "geometry": {
        "coordinates": [
          53.807264,
          55.177347
        ],
        "type": "Point"
      },
      "id": "47473e84545cf8e8df6efcb43b306829"
    },
    {
      "type": "Feature",
      "properties": {
        "Postcard ID": "JP-933196",
        "City": "Hamamatsu",
        "Country": "Japan",
        "Sent/Received": "Received",
        "Days Traveled": "22",
        "Month": "March",
        "Year": 2017,
        "Miles": "5598"
      },
      "geometry": {
        "coordinates": [
          137.77501,
          34.685743
        ],
        "type": "Point"
      },
      "id": "4749e416f2959ebe566f39655f0d8b17"
    },
    {
      "type": "Feature",
      "properties": {
        "Postcard ID": "US-4378768",
        "City": "Nottingham",
        "Country": "United Kingdom",
        "Sent/Received": "Sent",
        "Days Traveled": "40",
        "Month": "January",
        "Year": 2017,
        "Miles": "4768"
      },
      "geometry": {
        "coordinates": [
          -0.832474,
          53.06247
        ],
        "type": "Point"
      },
      "id": "47628f073f02dbf96b13cf2d064016bf"
    },
    {
      "type": "Feature",
      "properties": {
        "Postcard ID": "US-4364616",
        "City": "Milan",
        "Country": "Italy",
        "Sent/Received": "Sent",
        "Days Traveled": "24",
        "Month": "December",
        "Year": 2016,
        "Miles": "5485"
      },
      "geometry": {
        "coordinates": [
          9.685746,
          45.549865
        ],
        "type": "Point"
      },
      "id": "47cadd909b8dbed4b6119ba6e87faeaa"
    },
    {
      "type": "Feature",
      "properties": {
        "Postcard ID": "RU-5473168",
        "City": "Krasnojarsk",
        "Country": "Russia",
        "Sent/Received": "Received",
        "Days Traveled": "18",
        "Month": "March",
        "Year": 2017,
        "Miles": "5594"
      },
      "geometry": {
        "coordinates": [
          92.872606,
          56.020244
        ],
        "type": "Point"
      },
      "id": "485038fad6b36e6d62c4750b9d58476a"
    },
    {
      "type": "Feature",
      "properties": {
        "Postcard ID": "KR-178033",
        "City": "Seoul",
        "Country": "South Korea",
        "Sent/Received": "Received",
        "Days Traveled": "21",
        "Month": "March",
        "Year": 2017,
        "Miles": "5860"
      },
      "geometry": {
        "coordinates": [
          127.001175,
          37.518316
        ],
        "type": "Point"
      },
      "id": "48ed82676aee432b2acf89bc59f0528a"
    },
    {
      "type": "Feature",
      "properties": {
        "Postcard ID": "US-5035965",
        "City": "Omaha",
        "Country": "USA",
        "Sent/Received": "Sent",
        "Days Traveled": 5,
        "Month": "December",
        "Year": 2017,
        "Miles": 831
      },
      "geometry": {
        "coordinates": [
          -95.946826,
          41.262313
        ],
        "type": "Point"
      },
      "id": "48ff58eed91f751dc42d959d1bd6ca53"
    },
    {
      "type": "Feature",
      "properties": {
        "Postcard ID": "NL-3480833",
        "City": "Ter Heijde",
        "Country": "Netherlands",
        "Sent/Received": "Received",
        "Days Traveled": "9",
        "Month": "July",
        "Year": 2016,
        "Miles": "4971"
      },
      "geometry": {
        "coordinates": [
          4.172695,
          52.026747
        ],
        "type": "Point"
      },
      "id": "4a6e7bfd8816833b83652498df1b92b9"
    },
    {
      "type": "Feature",
      "properties": {
        "Postcard ID": "US-4820828",
        "City": "Dortmund",
        "Country": "Germany",
        "Sent/Received": "Sent",
        "Days Traveled": "8",
        "Month": "August",
        "Year": 2017,
        "Miles": "5095"
      },
      "geometry": {
        "coordinates": [
          7.452625,
          51.516047
        ],
        "type": "Point"
      },
      "id": "4b7ffb247be56f2e27aaa1c580d2cb6d"
    },
    {
      "type": "Feature",
      "properties": {
        "Postcard ID": "US-4953399",
        "City": "Nanjing",
        "Country": "China",
        "Sent/Received": "Sent",
        "Days Traveled": 23,
        "Month": "November",
        "Year": 2017,
        "Miles": 6457
      },
      "geometry": {
        "coordinates": [
          118.792374,
          32.056607
        ],
        "type": "Point"
      },
      "id": "4bf41a4168463ad697d190d53cbee9cf"
    },
    {
      "type": "Feature",
      "properties": {
        "Postcard ID": "US-5085439",
        "City": "Levice",
        "Country": "Slovakia",
        "Sent/Received": "Sent",
        "Days Traveled": 11,
        "Month": "January",
        "Year": 2018,
        "Miles": 5586
      },
      "geometry": {
        "coordinates": [
          18.600323,
          48.217687
        ],
        "type": "Point"
      },
      "id": "4c486df51816e61af80d4beaf160ed14"
    },
    {
      "type": "Feature",
      "properties": {
        "Postcard ID": "CZ-1095861",
        "City": "Pilsen",
        "Country": "Czechia",
        "Sent/Received": "Received",
        "Days Traveled": "22",
        "Month": "January",
        "Year": 2017,
        "Miles": "5357"
      },
      "geometry": {
        "coordinates": [
          13.408769,
          49.716292
        ],
        "type": "Point"
      },
      "id": "4cddc731910dafefa441f93e1d31c232"
    },
    {
      "type": "Feature",
      "properties": {
        "Postcard ID": "ID-177957",
        "City": "Surakarta",
        "Country": "Indonesia",
        "Sent/Received": "Received",
        "Days Traveled": "54",
        "Month": "July",
        "Year": 2016,
        "Miles": "8978"
      },
      "geometry": {
        "coordinates": [
          110.759599,
          -7.515566
        ],
        "type": "Point"
      },
      "id": "4dddf50eaea4712d4fce26abef325948"
    },
    {
      "type": "Feature",
      "properties": {
        "Postcard ID": "DE-6147211",
        "City": "Wegberg",
        "Country": "Germany",
        "Sent/Received": "Received",
        "Days Traveled": "8",
        "Month": "April",
        "Year": 2017,
        "Miles": "5078"
      },
      "geometry": {
        "coordinates": [
          6.280234,
          51.14087
        ],
        "type": "Point"
      },
      "id": "4e380a9bf56d5322b684b46dfd3d6d45"
    },
    {
      "type": "Feature",
      "properties": {
        "Postcard ID": "US-4697953",
        "City": "Magdeburg",
        "Country": "Germany",
        "Sent/Received": "Sent",
        "Days Traveled": "8",
        "Month": "June",
        "Year": 2017,
        "Miles": "5183"
      },
      "geometry": {
        "coordinates": [
          11.635478,
          52.131328
        ],
        "type": "Point"
      },
      "id": "4e44e380d7c89df3aae4bcc714c850ea"
    },
    {
      "type": "Feature",
      "properties": {
        "Postcard ID": "RU-6241480",
        "City": "Saint Petersburg",
        "Country": "Russia",
        "Sent/Received": "Received",
        "Days Traveled": 29,
        "Month": "February",
        "Year": 2018,
        "Miles": 5156
      },
      "geometry": {
        "coordinates": [
          30.327054,
          59.940687
        ],
        "type": "Point"
      },
      "id": "4f825afcf29ad247dbe2ef9766a39896"
    },
    {
      "type": "Feature",
      "properties": {
        "Postcard ID": "US-4516365",
        "City": "Chicago",
        "Country": "USA",
        "Sent/Received": "Sent",
        "Days Traveled": "12",
        "Month": "March",
        "Year": 2017,
        "Miles": "1256"
      },
      "geometry": {
        "coordinates": [
          -87.62524,
          41.88609
        ],
        "type": "Point"
      },
      "id": "4f8867888be8b2964d78deed1e14142b"
    },
    {
      "type": "Feature",
      "properties": {
        "Postcard ID": "JP-1036184",
        "City": "Saitama",
        "Country": "Japan",
        "Sent/Received": "Received",
        "Days Traveled": 13,
        "Month": "November",
        "Year": 2017,
        "Miles": 5473
      },
      "geometry": {
        "coordinates": [
          139.717728,
          35.903628
        ],
        "type": "Point"
      },
      "id": "4fafc91285baa1d56f21646bb7d54050"
    },
    {
      "type": "Feature",
      "properties": {
        "Postcard ID": "FR-805397",
        "City": "Montipellier",
        "Country": "France",
        "Sent/Received": "Received",
        "Days Traveled": "18",
        "Month": "January",
        "Year": 2017,
        "Miles": "5373"
      },
      "geometry": {
        "coordinates": [
          3.950964,
          43.634992
        ],
        "type": "Point"
      },
      "id": "4fb6b4850f65de472514955ede7c5ec8"
    },
    {
      "type": "Feature",
      "properties": {
        "Postcard ID": "TW-2063484",
        "City": "Kaohsiung",
        "Country": "Taiwan",
        "Sent/Received": "Received",
        "Days Traveled": "15",
        "Month": "October",
        "Year": 2016,
        "Miles": "6924"
      },
      "geometry": {
        "coordinates": [
          120.306906,
          22.631745
        ],
        "type": "Point"
      },
      "id": "4ffef407852e23f9be2a0f8b368b4548"
    },
    {
      "type": "Feature",
      "properties": {
        "Postcard ID": "US-4438849",
        "City": "Bonn",
        "Country": "Germany",
        "Sent/Received": "Sent",
        "Days Traveled": "13",
        "Month": "January",
        "Year": 2017,
        "Miles": "5123"
      },
      "geometry": {
        "coordinates": [
          7.099285,
          50.731079
        ],
        "type": "Point"
      },
      "id": "501980eb32cb08eaf14a083832a6914d"
    },
    {
      "type": "Feature",
      "properties": {
        "Postcard ID": "US-4027179",
        "City": "Kenosha",
        "Country": "USA",
        "Sent/Received": "Sent",
        "Days Traveled": "9",
        "Month": "May",
        "Year": 2016,
        "Miles": "1244"
      },
      "geometry": {
        "coordinates": [
          -87.82162,
          42.5846
        ],
        "type": "Point"
      },
      "id": "507081f155cc7727f8b7f4c3898801b9"
    },
    {
      "type": "Feature",
      "properties": {
        "Postcard ID": "US-4405824",
        "City": "Saint Petersburg",
        "Country": "Russia",
        "Sent/Received": "Sent",
        "Days Traveled": "31",
        "Month": "January",
        "Year": 2017,
        "Miles": "5156"
      },
      "geometry": {
        "coordinates": [
          30.282694,
          59.907145
        ],
        "type": "Point"
      },
      "id": "51862ba168f2c639539563fc3e2201d2"
    },
    {
      "type": "Feature",
      "properties": {
        "Postcard ID": "US-5109020",
        "City": "Anaheim",
        "Country": "USA",
        "Sent/Received": "Sent",
        "Days Traveled": 9,
        "Month": "January",
        "Year": 2018,
        "Miles": 581
      },
      "geometry": {
        "coordinates": [
          -117.940303,
          33.832168
        ],
        "type": "Point"
      },
      "id": "518dcac978df02db11a4cb7cfbb36fba"
    },
    {
      "type": "Feature",
      "properties": {
        "Postcard ID": "US-4927539",
        "City": "Amsterdam",
        "Country": "Netherlands",
        "Sent/Received": "Sent",
        "Days Traveled": 16,
        "Month": "October",
        "Year": 2017,
        "Miles": 4795
      },
      "geometry": {
        "coordinates": [
          4.886953,
          52.366681
        ],
        "type": "Point"
      },
      "id": "530fecd2e35a445f88ad35a813b6b9f2"
    },
    {
      "type": "Feature",
      "properties": {
        "Postcard ID": "TT-3109",
        "City": "Port of Spain",
        "Country": "Trinidad and Tobago",
        "Sent/Received": "Received",
        "Days Traveled": "18",
        "Month": "May",
        "Year": 2016,
        "Miles": "3697"
      },
      "geometry": {
        "coordinates": [
          -61.405354,
          10.67523
        ],
        "type": "Point"
      },
      "id": "53a9c7d393961b917fbbe7b2bfb19b40"
    },
    {
      "type": "Feature",
      "properties": {
        "Postcard ID": "US-4662712",
        "City": "Paris",
        "Country": "France",
        "Sent/Received": "Sent",
        "Days Traveled": "23",
        "Month": "June",
        "Year": 2017,
        "Miles": "5090"
      },
      "geometry": {
        "coordinates": [
          2.857797,
          48.844627
        ],
        "type": "Point"
      },
      "id": "53ae87e8ec71d28424893027c1b61d1d"
    },
    {
      "type": "Feature",
      "properties": {
        "Postcard ID": "US-4184879",
        "City": "Lovosice",
        "Country": "Czechia",
        "Sent/Received": "Sent",
        "Days Traveled": "9",
        "Month": "August",
        "Year": 2016,
        "Miles": "5335"
      },
      "geometry": {
        "coordinates": [
          14.051711,
          50.513051
        ],
        "type": "Point"
      },
      "id": "54261229df3338666846b9ca76f51f13"
    },
    {
      "type": "Feature",
      "properties": {
        "Postcard ID": "US-4420233",
        "City": "Hamburg",
        "Country": "Germany",
        "Sent/Received": "Sent",
        "Days Traveled": "17",
        "Month": "January",
        "Year": 2017,
        "Miles": "5063"
      },
      "geometry": {
        "coordinates": [
          10.009682,
          53.575376
        ],
        "type": "Point"
      },
      "id": "549dafc7290f6cfdd4f9f22913b2e86c"
    },
    {
      "type": "Feature",
      "properties": {
        "Postcard ID": "RU-6036489",
        "City": "Tomsk",
        "Country": "Russia",
        "Sent/Received": "Received",
        "Days Traveled": 24,
        "Month": "November",
        "Year": 2017,
        "Miles": 5645
      },
      "geometry": {
        "coordinates": [
          84.966639,
          56.491263
        ],
        "type": "Point"
      },
      "id": "54d067c350983998d7c50e5e5a3327d8"
    },
    {
      "type": "Feature",
      "properties": {
        "Postcard ID": "US-4609765",
        "City": "Amsterdam",
        "Country": "Netherlands",
        "Sent/Received": "Sent",
        "Days Traveled": "6",
        "Month": "April",
        "Year": 2017,
        "Miles": "4975"
      },
      "geometry": {
        "coordinates": [
          4.89332,
          52.362419
        ],
        "type": "Point"
      },
      "id": "553e5ca75193350b9f6abafed3d1b262"
    },
    {
      "type": "Feature",
      "properties": {
        "Postcard ID": "US-4962140",
        "City": "Voronezh",
        "Country": "Russia",
        "Sent/Received": "Sent",
        "Days Traveled": 18,
        "Month": "November",
        "Year": 2017,
        "Miles": 5817
      },
      "geometry": {
        "coordinates": [
          39.188587,
          51.675076
        ],
        "type": "Point"
      },
      "id": "55f39ae066290fc886d18f4d3aa1343e"
    },
    {
      "type": "Feature",
      "properties": {
        "Postcard ID": "FI-3097797",
        "City": "Kannus",
        "Country": "Finland",
        "Sent/Received": "Received",
        "Days Traveled": 8,
        "Month": "October",
        "Year": 2017,
        "Miles": 4813
      },
      "geometry": {
        "coordinates": [
          23.909803,
          63.90151
        ],
        "type": "Point"
      },
      "id": "56ca5e4eee2cf4169c323cfaa0b0101c"
    },
    {
      "type": "Feature",
      "properties": {
        "Postcard ID": "US-4119601",
        "City": "Vilnius",
        "Country": "Lithuania",
        "Sent/Received": "Sent",
        "Days Traveled": "10",
        "Month": "July",
        "Year": 2016,
        "Miles": "5374"
      },
      "geometry": {
        "coordinates": [
          25.26156,
          54.643366
        ],
        "type": "Point"
      },
      "id": "56cbca650e192de92eef6a14473175d1"
    },
    {
      "type": "Feature",
      "properties": {
        "Postcard ID": "US-4540629",
        "City": "Gary",
        "Country": "USA",
        "Sent/Received": "Received",
        "Days Traveled": "5",
        "Month": "March",
        "Year": 2017,
        "Miles": "1282"
      },
      "geometry": {
        "coordinates": [
          -87.32958,
          41.597669
        ],
        "type": "Point"
      },
      "id": "573004d06b17a3e6d53e828961994e5f"
    },
    {
      "type": "Feature",
      "properties": {
        "Postcard ID": "RU-5565765",
        "City": "Saint Petersburg",
        "Country": "Russia",
        "Sent/Received": "Received",
        "Days Traveled": "35",
        "Month": "April",
        "Year": 2017,
        "Miles": "5156"
      },
      "geometry": {
        "coordinates": [
          30.249735,
          59.976618
        ],
        "type": "Point"
      },
      "id": "57599a90bee3d8d091ad806329e0c2c6"
    },
    {
      "type": "Feature",
      "properties": {
        "Postcard ID": "US-4373194",
        "City": "Booneville",
        "Country": "USA",
        "Sent/Received": "Received",
        "Days Traveled": "9",
        "Month": "December",
        "Year": 2016,
        "Miles": "1338"
      },
      "geometry": {
        "coordinates": [
          -88.556434,
          34.65064
        ],
        "type": "Point"
      },
      "id": "576167894b25ec2d1001462df5fc35c0"
    },
    {
      "type": "Feature",
      "properties": {
        "Postcard ID": "US-4476137",
        "City": "Porto",
        "Country": "Portugal",
        "Sent/Received": "Sent",
        "Days Traveled": "8",
        "Month": "February",
        "Year": 2017,
        "Miles": "5018"
      },
      "geometry": {
        "coordinates": [
          -8.574744,
          41.168557
        ],
        "type": "Point"
      },
      "id": "576e21537bc1a4f5821b1396f1e00e11"
    },
    {
      "type": "Feature",
      "properties": {
        "Postcard ID": "TW-2187514",
        "City": "Taipei",
        "Country": "Taiwan",
        "Sent/Received": "Received",
        "Days Traveled": "12",
        "Month": "March",
        "Year": 2017,
        "Miles": "6744"
      },
      "geometry": {
        "coordinates": [
          121.53079,
          25.034539
        ],
        "type": "Point"
      },
      "id": "57d01ed0f986622e062f47844b3f6c69"
    },
    {
      "type": "Feature",
      "properties": {
        "Postcard ID": "US-4044821",
        "City": "Prague",
        "Country": "Czechia",
        "Sent/Received": "Sent",
        "Days Traveled": "8",
        "Month": "June",
        "Year": 2016,
        "Miles": "5368"
      },
      "geometry": {
        "coordinates": [
          14.444987,
          50.050808
        ],
        "type": "Point"
      },
      "id": "586b335a82a529789cab7aa8372ecda6"
    },
    {
      "type": "Feature",
      "properties": {
        "Postcard ID": "US-5085413",
        "City": "Bradford",
        "Country": "United Kingdom",
        "Sent/Received": "Sent",
        "Days Traveled": 9,
        "Month": "January",
        "Year": 2018,
        "Miles": 4706
      },
      "geometry": {
        "coordinates": [
          -1.75277,
          53.798103
        ],
        "type": "Point"
      },
      "id": "5a11cf915ff8da7fe7e4d8d898ca87c0"
    },
    {
      "type": "Feature",
      "properties": {
        "Postcard ID": "US-4138434",
        "City": "Eijsden Margraten",
        "Country": "Netherlands",
        "Sent/Received": "Sent",
        "Days Traveled": "9",
        "Month": "July",
        "Year": 2016,
        "Miles": "5078"
      },
      "geometry": {
        "coordinates": [
          5.716323,
          50.776094
        ],
        "type": "Point"
      },
      "id": "5ab0054cea76190e8a70d50d84c792ed"
    },
    {
      "type": "Feature",
      "properties": {
        "Postcard ID": "US-4980560",
        "City": "Sacramento",
        "Country": "USA",
        "Sent/Received": "Received",
        "Days Traveled": 13,
        "Month": "November",
        "Year": 2017,
        "Miles": 544
      },
      "geometry": {
        "coordinates": [
          -121.525379,
          38.580634
        ],
        "type": "Point"
      },
      "id": "5abebee861f0e4f01471f0599caf5c4a"
    },
    {
      "type": "Feature",
      "properties": {
        "Postcard ID": "US-4547409",
        "City": "Saint Petersburg",
        "Country": "Russia",
        "Sent/Received": "Sent",
        "Days Traveled": "42",
        "Month": "April",
        "Year": 2017,
        "Miles": "5156"
      },
      "geometry": {
        "coordinates": [
          30.255228,
          60.003405
        ],
        "type": "Point"
      },
      "id": "5c08971e7bb63c76e535ad21540ce170"
    },
    {
      "type": "Feature",
      "properties": {
        "Postcard ID": "US-4554268",
        "City": "Sag Harbor",
        "Country": "USA",
        "Sent/Received": "Received",
        "Days Traveled": "5",
        "Month": "March",
        "Year": 2017,
        "Miles": "2051"
      },
      "geometry": {
        "coordinates": [
          -72.29563,
          41.000554
        ],
        "type": "Point"
      },
      "id": "5e28ada64728508470955f6d764b96ed"
    },
    {
      "type": "Feature",
      "properties": {
        "Postcard ID": "JP-1031890",
        "City": "Osaka",
        "Country": "Japan",
        "Sent/Received": "Received",
        "Days Traveled": 10,
        "Month": "November",
        "Year": 2017,
        "Miles": 5695
      },
      "geometry": {
        "coordinates": [
          135.503902,
          34.699513
        ],
        "type": "Point"
      },
      "id": "5e311a6aaaeda9cfa80c53618a1dbef2"
    },
    {
      "type": "Feature",
      "properties": {
        "Postcard ID": "DE-5245501",
        "City": "Halle",
        "Country": "Germany",
        "Sent/Received": "Received",
        "Days Traveled": "11",
        "Month": "May",
        "Year": 2016,
        "Miles": "5226"
      },
      "geometry": {
        "coordinates": [
          11.977644,
          51.480366
        ],
        "type": "Point"
      },
      "id": "5e61be212ef287425a26fb434c4eb9d1"
    },
    {
      "type": "Feature",
      "properties": {
        "Postcard ID": "US-4980556",
        "City": "Taipei",
        "Country": "Taiwan",
        "Sent/Received": "Sent",
        "Days Traveled": 18,
        "Month": "November",
        "Year": 2017,
        "Miles": 6744
      },
      "geometry": {
        "coordinates": [
          121.533262,
          25.049246
        ],
        "type": "Point"
      },
      "id": "5e86965c92ee8ea26271facd9088543c"
    },
    {
      "type": "Feature",
      "properties": {
        "Postcard ID": "US-4868659",
        "City": "Hammonton",
        "Country": "USA",
        "Sent/Received": "Sent",
        "Days Traveled": "7",
        "Month": "September",
        "Year": 2017,
        "Miles": "1944"
      },
      "geometry": {
        "coordinates": [
          -74.808495,
          39.639088
        ],
        "type": "Point"
      },
      "id": "5e9dbe5abcfcea72a69206d8b01f39bb"
    },
    {
      "type": "Feature",
      "properties": {
        "Postcard ID": "DE-6649771",
        "City": "Walsrode",
        "Country": "Germany",
        "Sent/Received": "Received",
        "Days Traveled": 9,
        "Month": "November",
        "Year": 2017,
        "Miles": 5088
      },
      "geometry": {
        "coordinates": [
          9.590883,
          52.858793
        ],
        "type": "Point"
      },
      "id": "5ebdc0e771b3a9e3a52c36e263ec93a4"
    },
    {
      "type": "Feature",
      "properties": {
        "Postcard ID": "US-4989672",
        "City": "Helsinki",
        "Country": "Finland",
        "Sent/Received": "Sent",
        "Days Traveled": 12,
        "Month": "November",
        "Year": 2017,
        "Miles": 5047
      },
      "geometry": {
        "coordinates": [
          24.914964,
          60.238836
        ],
        "type": "Point"
      },
      "id": "5ec591607afbe981933c7d35dd1b316c"
    },
    {
      "type": "Feature",
      "properties": {
        "Postcard ID": "US-4559228",
        "City": "Welver",
        "Country": "Germany",
        "Sent/Received": "Sent",
        "Days Traveled": "7",
        "Month": "March",
        "Year": 2017,
        "Miles": "5105"
      },
      "geometry": {
        "coordinates": [
          7.958594,
          51.61404
        ],
        "type": "Point"
      },
      "id": "5f7a7aba5aabdf0e9c3e81ef67159246"
    },
    {
      "type": "Feature",
      "properties": {
        "Postcard ID": "AT-302534",
        "City": "Graz",
        "Country": "Austria",
        "Sent/Received": "Received",
        "Days Traveled": "23",
        "Month": "December",
        "Year": 2016,
        "Miles": "5561"
      },
      "geometry": {
        "coordinates": [
          15.477408,
          47.079732
        ],
        "type": "Point"
      },
      "id": "602c4b48ca7ddb32eec1130693d151af"
    },
    {
      "type": "Feature",
      "properties": {
        "Postcard ID": "DE-5848935",
        "City": "Hormannshausen",
        "Country": "Germany",
        "Sent/Received": "Received",
        "Days Traveled": "15",
        "Month": "January",
        "Year": 2017,
        "Miles": "5096"
      },
      "geometry": {
        "coordinates": [
          9.179913,
          52.46636
        ],
        "type": "Point"
      },
      "id": "6103a7935625e2cf05a4542585048c0a"
    },